[
 {
   "id": "1",
   "title": "BK Kaufmannsschule Bauteil A",
   "address": "Neuer Weg 121",
   "type": "Energetische Sanierung Außenhülle",
   "costs": "500000,00 €",
   "finish": "2018",
   "lat": 51.337062,
   "lng": 6.544768,
   "icon": "fa-building-o",
   "color": "blue"
 },
 {
   "id": "2",
   "title": "BK Kaufmannsschule Bauteil B",
   "address": "Neuer Weg 121",
   "type": "Energetische Sanierung Außenhülle",
   "costs": "1400000,00 €",
   "finish": "2018",
   "lat": 51.33764,
   "lng": 6.544334,
   "icon": "fa-building-o",
   "color": "blue"
 },
 {
   "id": "3",
   "title": "BK Kaufmannsschule Turnhalle",
   "address": "Neuer Weg 121",
   "type": "Energetische Sanierung Außenhülle",
   "costs": "600000,00 €",
   "finish": "2018",
   "lat": 51.33782,
   "lng": 6.545451,
   "icon": "fa-building-o",
   "color": "blue"
 },
 {
   "id": "4",
   "title": "4. Gesamtschule, Lübecker Weg",
   "address": "Lübecker Weg 56",
   "type": "Energetische Sanierung Außenhülle",
   "costs": "1000000,00 €",
   "finish": "2018 ",
   "lat": 51.35542,
   "lng": 6.634316,
   "icon": "fa-building-o",
   "color": "blue"
 },
 {
   "id": "5",
   "title": "Kita Hermannstraße",
   "address": "Hermannstr. 39",
   "type": "Anpassung des Raumangebots",
   "costs": "1600000,00 €",
   "finish": "2018",
   "lat": 51.325029,
   "lng": 6.551994,
   "icon": "fa-building-o",
   "color": "blue"
 },
 {
   "id": "6",
   "title": "Kita Dieselstraße",
   "address": "Dieselstr. 24",
   "type": "Anpassung des Raumangebots",
   "costs": "1800000,00 €",
   "finish": "2019",
   "lat": 51.348277,
   "lng": 6.525781,
   "icon": "fa-building-o",
   "color": "blue"
 },
 {
   "id": "7",
   "title": "Jugendfreizeit Herbertzstraße",
   "address": "Herbertzstr. 123",
   "type": "Energetische Dachsanierung",
   "costs": "200000,00 €",
   "finish": "Maßnahme ist abgeschlossen",
   "lat": 51.324227,
   "lng": 6.59865,
   "icon": "fa-building-o",
   "color": "blue"
 },
 {
   "id": "8",
   "title": "Kita Neuhofsweg",
   "address": "Neuhofer Weg 25",
   "type": "Energetische Sanierung der Fenster",
   "costs": "250000,00 €",
   "finish": "Maßnahme ist abgeschlossen",
   "lat": 51.372927,
   "lng": 6.618275,
   "icon": "fa-building-o",
   "color": "blue"
 },
 {
   "id": "9",
   "title": "Kita Steckendorfer Straße",
   "address": "Steckendorfer Str. 60a",
   "type": "Erneuerung Dachstuhl",
   "costs": "250000,00 €",
   "finish": "2018",
   "lat": 51.338459,
   "lng": 6.56841,
   "icon": "fa-building-o",
   "color": "blue"
 },
 {
   "id": "10",
   "title": "Fabrik Heeder",
   "address": "Virchowstraße 130",
   "type": "Diverse, Pumpen / Dämmung",
   "costs": "16700,00 €",
   "finish": "2017",
   "lat": 51.322827,
   "lng": 6.572372,
   "icon": "fa-building-o",
   "color": "blue"
 },
 {
   "id": "11",
   "title": "Textilmuseum",
   "address": "Andreasmarkt 8",
   "type": "Diverse, Pumpen / Dämmung",
   "costs": "16700,00 €",
   "finish": "2018",
   "lat": 51.333801,
   "lng": 6.636943,
   "icon": "fa-building-o",
   "color": "blue"
 },
 {
   "id": "12",
   "title": "Burg Linn",
   "address": "Rheinbabenstraße 85",
   "type": "Diverse, Pumpen / Dämmung",
   "costs": "16700,00 €",
   "finish": "2017",
   "lat": 51.334652,
   "lng": 6.635989,
   "icon": "fa-building-o",
   "color": "blue"
 },
 {
   "id": "13",
   "title": "Freizeitzentrum Süd / Jugendtreff",
   "address": "Kölner Str. 190",
   "type": "Diverse, Pumpen / Dämmung",
   "costs": "16700,00 €",
   "finish": "2017",
   "lat": 51.318885,
   "lng": 6.574731,
   "icon": "fa-building-o",
   "color": "blue"
 },
 {
   "id": "14",
   "title": "Herbertzstr. KITA & Jugendtreff",
   "address": "Herbertzstr. 123",
   "type": "Diverse, Pumpen / Dämmung",
   "costs": "16700,00 €",
   "finish": "2017",
   "lat": 51.324476,
   "lng": 6.598399,
   "icon": "fa-building-o",
   "color": "blue"
 },
 {
   "id": "15",
   "title": "Rathaus",
   "address": "Von-der-Leyen-Platz 1",
   "type": "Diverse, Pumpen / Dämmung",
   "costs": "16700,00 €",
   "finish": "2018",
   "lat": 51.334011,
   "lng": 6.558988,
   "icon": "fa-building-o",
   "color": "blue"
 },
 {
   "id": "16",
   "title": "BK Kaufmannsschule",
   "address": "Neuer Weg 121",
   "type": "Diverse, Pumpen / Dämmung",
   "costs": "16700,00 €",
   "finish": "2018",
   "lat": 51.33765,
   "lng": 6.545211,
   "icon": "fa-building-o",
   "color": "blue"
 },
 {
   "id": "17",
   "title": "Gesamtschule Kaiserplatz",
   "address": "Kaiserpl. 50",
   "type": "Diverse, Pumpen / Dämmung",
   "costs": "16700,00 €",
   "finish": "2018",
   "lat": 51.343763,
   "lng": 6.590972,
   "icon": "fa-building-o",
   "color": "blue"
 },
 {
   "id": "18",
   "title": "Schulkomplex Horkesgath",
   "address": "Horkesgath",
   "type": "Diverse, Pumpen / Dämmung",
   "costs": "16700,00 €",
   "finish": "2018",
   "lat": 51.337263,
   "lng": 6.529176,
   "icon": "fa-building-o",
   "color": "blue"
 }
]