[
 {
   "id": "110",
   "address": "Mündelheimer Straße",
   "type": "Flüsterasphalt",
   "boundfrom": "Alte Krefelder Straße",
   "boundto": "Königsberger Straße",
   "finish": "09.08.2016",
   "costs": 192100,
   "lat": 51.349612,
   "lng": 6.644822,
   "icon": "fa-car-o",
   "color": "blue"
 },
 {
   "id": "140",
   "address": "Moerser Landstraße",
   "type": "Flüsterasphalt",
   "boundfrom": "Buscher Holzweg",
   "boundto": "An der Elfrather Mühle",
   "finish": "25.10.2016",
   "costs": 141900,
   "lat": 51.379235,
   "lng": 6.594531,
   "icon": "fa-car-o",
   "color": "blue"
 },
 {
   "id": "240",
   "address": "Hafenstraße",
   "type": "Luftreinhaltung / Radwegerneuerung",
   "boundfrom": "Rheinbabenstraße",
   "boundto": "Georg-C-Marshall-Straße",
   "finish": "19.10.2016",
   "costs": 51200,
   "lat": 51.336701,
   "lng": 6.643451,
   "icon": "fa-car-o",
   "color": "blue"
 },
 {
   "id": "250",
   "address": "Hökendyk",
   "type": "Luftreinhaltung / Radwegerneuerung",
   "boundfrom": "Moerser Straße",
   "boundto": "Kliedbruchstraße",
   "finish": "27.10.2016",
   "costs": 53100,
   "lat": 51.35956,
   "lng": 6.565991,
   "icon": "fa-car-o",
   "color": "blue"
 },
 {
   "id": "290",
   "address": "Kempener Allee, östl. S.",
   "type": "Luftreinhaltung / Radwegerneuerung",
   "boundfrom": "Privatstr. neben H-Nr. 149",
   "boundto": "Dieselstraße",
   "finish": "16.08.2016",
   "costs": 15300,
   "lat": 51.345237,
   "lng": 6.524317,
   "icon": "fa-car-o",
   "color": "blue"
 },
 {
   "id": "310",
   "address": "Schütenhofstraße",
   "type": "Luftreinhaltung / Radwegerneuerung",
   "boundfrom": "Buschstraße",
   "boundto": "Uerdinger Straße",
   "finish": "19.10.2016",
   "costs": 22900,
   "lat": 51.348436,
   "lng": 6.615592,
   "icon": "fa-car-o",
   "color": "blue"
 },
 {
   "id": "320",
   "address": "Wüstrathstraße",
   "type": "Luftreinhaltung / Radwegerneuerung",
   "boundfrom": "Alte Krefelder Straße",
   "boundto": "Am Röttgen",
   "finish": "16.08.2016",
   "costs": 13600,
   "lat": 51.353667,
   "lng": 6.64322,
   "icon": "fa-car-o",
   "color": "blue"
 },
 {
   "id": "130",
   "address": "Bahnhofstraße",
   "type": "Flüsterasphalt",
   "boundfrom": "Am Röttgen",
   "boundto": "DB-Brücke",
   "finish": "26.06.2017",
   "costs": 476200,
   "lat": 51.357421,
   "lng": 6.647004,
   "icon": "fa-car-o",
   "color": "blue"
 },
 {
   "id": "330",
   "address": "Kirschkamper Weg",
   "type": "Luftreinhaltung / Radwegerneuerung",
   "boundfrom": "Lilienthalstraße",
   "boundto": "Flugplatz Ende",
   "finish": "25.10.2017",
   "costs": 25500,
   "lat": 51.385972,
   "lng": 6.577422,
   "icon": "fa-car-o",
   "color": "blue"
 },
 {
   "id": "340",
   "address": "Flünnertzdyk",
   "type": "Luftreinhaltung / Radwegerneuerung",
   "boundfrom": "Sprudeldyk",
   "boundto": "Nieper Straße",
   "finish": "25.10.2017",
   "costs": 43500,
   "lat": 51.364048,
   "lng": 6.558064,
   "icon": "fa-car-o",
   "color": "blue"
 },
 {
   "id": "220",
   "address": "Erneuerung LZA",
   "type": "Luftreinhaltung",
   "boundfrom": "Kreuzung St. Anton Straße /",
   "boundto": "Kreuzung / Preußenring",
   "finish": "10.08.2017",
   "costs": 120600,
   "lat": 51.33124,
   "lng": 6.548712,
   "icon": "fa-car-o",
   "color": "blue"
 },
 {
   "id": "a",
   "address": "Berliner Str.",
   "type": "Luftreinhaltung",
   "boundfrom": "Vaderstraße",
   "boundto": "Glindholzstr.",
   "finish": "07.10.2016",
   "costs": null,
   "lat": 51.338479,
   "lng": 6.609431,
   "icon": "fa-car-o",
   "color": "blue"
 },
 {
   "id": "b",
   "address": "Oppumer Straße",
   "type": "Luftreinhaltung",
   "boundfrom": "Dießemer Bruch",
   "boundto": "Viktoriastraße",
   "finish": "19.10.2016",
   "costs": null,
   "lat": 51.33109,
   "lng": 6.579472,
   "icon": "fa-car-o",
   "color": "blue"
 },
 {
   "id": "c",
   "address": "Ceresta Straße",
   "type": "Luftreinhaltung",
   "boundfrom": "Georg-C. Marshall Straße",
   "boundto": "Weidenbruchweg",
   "finish": "21.10.2016",
   "costs": null,
   "lat": 51.337457,
   "lng": 6.65765,
   "icon": "fa-car-o",
   "color": "blue"
 },
 {
   "id": "d",
   "address": "Georg-C. Marshall Straße",
   "type": "Luftreinhaltung",
   "boundfrom": "Hafenstraße",
   "boundto": "Weidenbruchweg",
   "finish": "21.10.2016",
   "costs": null,
   "lat": 51.337628,
   "lng": 6.654007,
   "icon": "fa-car-o",
   "color": "blue"
 },
 {
   "id": "e",
   "address": "St. Töniser Straße",
   "type": "Luftreinhaltung",
   "boundfrom": "DB-Brücke",
   "boundto": "Gutenbergstraße",
   "finish": "16.08.2016",
   "costs": null,
   "lat": 51.330274,
   "lng": 6.5439,
   "icon": "fa-car-o",
   "color": "blue"
 },
 {
   "id": "f",
   "address": "Werner-Voss Straße",
   "type": "Luftreinhaltung",
   "boundfrom": "Europaring",
   "boundto": "Emil-Schäfer-Straße",
   "finish": "09.11.2017",
   "costs": null,
   "lat": 51.359705,
   "lng": 6.6121,
   "icon": "fa-car-o",
   "color": "blue"
 },
 {
   "id": "g",
   "address": "Steegerdyk",
   "type": "Luftreinhaltung",
   "boundfrom": "Junkersdyk",
   "boundto": "Bruckersche Straße",
   "finish": "06.10.2017",
   "costs": null,
   "lat": 51.372693,
   "lng": 6.527015,
   "icon": "fa-car-o",
   "color": "blue"
 },
 {
   "id": "h",
   "address": "Traarer Straße",
   "type": "Luftreinhaltung",
   "boundfrom": "Breslauer Stra0e",
   "boundto": "Akazuenstraße",
   "finish": "08.12.2017",
   "costs": null,
   "lat": 51.362352,
   "lng": 6.619201,
   "icon": "fa-car-o",
   "color": "blue"
 }
]