[
 {
   "id": 1,
   "address": "Bahnhofstraße",
   "type": "Flüsterasphalt",
   "finished": "x",
   "2017": "x",
   "finance": "KInvFöG-Mittel",
   "costs": 476200,
   "boundfrom": "Am Röttgen",
   "boundto": "DB-Brücke",
   "lat": 51.357421,
   "lng": 6.647004,
   "icon": "fa-car",
   "color": "green"
 },
 {
   "id": 2,
   "address": "Berliner Straße",
   "type": "Luftreinhaltung",
   "finished": "x",
   "2017": "",
   "finance": "KInvFöG-Mittel",
   "costs": null,
   "boundfrom": "Vaderstraße",
   "boundto": "Glindholzstraße",
   "lat": 51.338479,
   "lng": 6.609431,
   "icon": "fa-car",
   "color": "green"
 },
 {
   "id": 3,
   "address": "Ceresta Straße",
   "type": "Luftreinhaltung",
   "finished": "x",
   "2017": "",
   "finance": "KInvFöG-Mittel",
   "costs": null,
   "boundfrom": "Georg-C. Marsahll Straße",
   "boundto": "Weidenbruchweg",
   "lat": 51.337457,
   "lng": 6.65765,
   "icon": "fa-car",
   "color": "green"
 },
 {
   "id": 4,
   "address": "Erneuerung LZA",
   "type": "Luftreinhaltung",
   "finished": "x",
   "2017": "x",
   "finance": "KInvFöG-Mittel",
   "costs": 120600,
   "boundfrom": "Kreuzung St. Anton Straße",
   "boundto": "Kreuzung Preußenring",
   "lat": 51.33124,
   "lng": 6.548712,
   "icon": "fa-car",
   "color": "green"
 },
 {
   "id": 5,
   "address": "Flünnertzdyk",
   "type": "Luftreinhaltung",
   "finished": "x",
   "2017": "x",
   "finance": "KInvFöG-Mittel",
   "costs": 43500,
   "boundfrom": "Sprudeldyk",
   "boundto": "Nieper Straße",
   "lat": 51.364048,
   "lng": 6.558064,
   "icon": "fa-car",
   "color": "green"
 },
 {
   "id": 7,
   "address": "Georg-C. Marshall Straße",
   "type": "Luftreinhaltung",
   "finished": "x",
   "2017": "",
   "finance": "KInvFöG-Mittel",
   "costs": null,
   "boundfrom": "Hafenstraße",
   "boundto": "Weidenbruchweg",
   "lat": 51.337628,
   "lng": 6.654007,
   "icon": "fa-car",
   "color": "green"
 },
 {
   "id": 8,
   "address": "Hafenstraße",
   "type": "Luftreinhaltung",
   "finished": "x",
   "2017": "",
   "finance": "KInvFöG-Mittel",
   "costs": 51200,
   "boundfrom": "Rheinbabenstraße",
   "boundto": "Georg-C. Marsahll Straße",
   "lat": 51.336701,
   "lng": 6.643451,
   "icon": "fa-car",
   "color": "green"
 },
 {
   "id": 10,
   "address": "Hökendyk",
   "type": "Luftreinhaltung",
   "finished": "x",
   "2017": "",
   "finance": "KInvFöG-Mittel",
   "costs": 53100,
   "boundfrom": "Moerser Straße",
   "boundto": "Kliedbruchstraße",
   "lat": 51.35956,
   "lng": 6.565991,
   "icon": "fa-car",
   "color": "green"
 },
 {
   "id": 12,
   "address": "Kempener Allee, östl. S.",
   "type": "Luftreinhaltung",
   "finished": "x",
   "2017": "",
   "finance": "KInvFöG-Mittel",
   "costs": 15300,
   "boundfrom": "Privatstr. H-Nr. 149",
   "boundto": "Dieselstraße",
   "lat": 51.345237,
   "lng": 6.524317,
   "icon": "fa-car",
   "color": "green"
 },
 {
   "id": 14,
   "address": "Kirschkamper Weg",
   "type": "Luftreinhaltung",
   "finished": "x",
   "2017": "x",
   "finance": "KInvFöG-Mittel",
   "costs": 25500,
   "boundfrom": "Lilienthalstraße",
   "boundto": "Flugplatz Ende",
   "lat": 51.385972,
   "lng": 6.577422,
   "icon": "fa-car",
   "color": "green"
 },
 {
   "id": 16,
   "address": "Moerser Landstraße",
   "type": "Flüsterasphalt",
   "finished": "x",
   "2017": "",
   "finance": "KInvFöG-Mittel",
   "costs": 141900,
   "boundfrom": "Buscher Holzweg",
   "boundto": "An der Elfrather Mühle",
   "lat": 51.379235,
   "lng": 6.594531,
   "icon": "fa-car",
   "color": "green"
 },
 {
   "id": 17,
   "address": "Mündelheimer Straße",
   "type": "Flüsterasphalt ",
   "finished": "x",
   "2017": "",
   "finance": "KInvFöG-Mittel",
   "costs": 192100,
   "boundfrom": "Alte Krefelder Straße",
   "boundto": "Königsberger Straße",
   "lat": 51.349612,
   "lng": 6.644822,
   "icon": "fa-car",
   "color": "green"
 },
 {
   "id": 18,
   "address": "Oppumer Straße",
   "type": "Luftreinhaltung",
   "finished": "x",
   "2017": "",
   "finance": "KInvFöG-Mittel",
   "costs": null,
   "boundfrom": "Dießemer Bruch",
   "boundto": "Viktoriastraße",
   "lat": 51.33109,
   "lng": 6.579472,
   "icon": "fa-car",
   "color": "green"
 },
 {
   "id": 19,
   "address": "Schütenhofstraße",
   "type": "Luftreinhaltung",
   "finished": "x",
   "2017": "",
   "finance": "KInvFöG-Mittel",
   "costs": 22900,
   "boundfrom": "Buschstraße",
   "boundto": "Uerdinger Straße",
   "lat": 51.348436,
   "lng": 6.615592,
   "icon": "fa-car",
   "color": "green"
 },
 {
   "id": 21,
   "address": "St. Töniser Straße",
   "type": "Luftreinhaltung",
   "finished": "x",
   "2017": "",
   "finance": "KInvFöG-Mittel",
   "costs": null,
   "boundfrom": "DB-Brücke",
   "boundto": "Gutenbergstraße",
   "lat": 51.330274,
   "lng": 6.5439,
   "icon": "fa-car",
   "color": "green"
 },
 {
   "id": 22,
   "address": "Steegerdyk",
   "type": "Luftreinhaltung",
   "finished": "x",
   "2017": "x",
   "finance": "KInvFöG-Mittel",
   "costs": null,
   "boundfrom": "Junkersdyk",
   "boundto": "Bruckersche Straße",
   "lat": 51.372693,
   "lng": 6.527015,
   "icon": "fa-car",
   "color": "green"
 },
 {
   "id": 23,
   "address": "Werner-Voss Straße",
   "type": "Luftreinhaltung",
   "finished": "x",
   "2017": "x",
   "finance": "KInvFöG-Mittel",
   "costs": null,
   "boundfrom": "Europaring",
   "boundto": "Emil-Schäfer-Straße",
   "lat": 51.359705,
   "lng": 6.6121,
   "icon": "fa-car",
   "color": "green"
 },
 {
   "id": 24,
   "address": "Wüstrathstraße",
   "type": "Luftreinhaltung",
   "finished": "x",
   "2017": "",
   "finance": "KInvFöG-Mittel",
   "costs": 13600,
   "boundfrom": "Alte Krefelder Straße",
   "boundto": "Am Röttgen",
   "lat": 51.353667,
   "lng": 6.64322,
   "icon": "fa-car",
   "color": "green"
 }
]